{
  "國立師大附中": {
    "YN": 1, 
    "address": "10658台北市大安區信義路三段143號", 
    "county": "臺北市", 
    "latitude": "25.0336618", 
    "longitude": "121.538233", 
    "name": "沈美惠", 
    "phone": "0930-810-305", 
    "userid": "U83d83ca6259905ed48f527ba01930885"
  }, 
  "國立臺北教大實小": {
    "YN": 0, 
    "address": "106台北市大安區和平東路二段94號", 
    "county": "臺北市", 
    "latitude": "25.0250706", 
    "longitude": "121.5387068", 
    "name": "陳曉達", 
    "phone": "0972-790-622", 
    "userid": "Udbef49c1b5053a65ec998cdec6c3799a"
  }, 
  "市立三民國小": {
    "YN": 1, 
    "address": "105台北市松山區民權東路五段1號", 
    "county": "臺北市", 
    "latitude": "25.0632275", 
    "longitude": "121.56209790000001", 
    "name": "王鎮雄", 
    "phone": "0903-709-486", 
    "userid": "Ucf5603e8829ef74fcf12ddcb197b82bb"
  }, 
  "市立三興國小": {
    "YN": 0, 
    "address": "110台北市信義區基隆路二段99號", 
    "county": "臺北市", 
    "latitude": "25.0294718", 
    "longitude": "121.55607830000001", 
    "name": "郭淑裕", 
    "phone": "0936-186-796", 
    "userid": "U5a10110cb88e5e109cd5b470fae410e8"
  }, 
  "市立仁愛國中": {
    "YN": 0, 
    "address": "106台北市大安區仁愛路四段130號", 
    "county": "臺北市", 
    "latitude": "25.0375068", 
    "longitude": "121.54868629999999", 
    "name": "何喬裕", 
    "phone": "0973-691-413", 
    "userid": "U692888fce7380a0ad58c8bee63d1e33b"
  }, 
  "市立介壽國中": {
    "YN": 0, 
    "address": "105台北市松山區延壽街401號", 
    "county": "臺北市", 
    "latitude": "25.0564167", 
    "longitude": "121.55424790000001", 
    "name": "張原中", 
    "phone": "0971-763-165", 
    "userid": "U60ae7078916b8b7420cbc34cee9c540e"
  }, 
  "市立信義國中": {
    "YN": 0, 
    "address": "110台北市信義區松仁路158巷1號", 
    "county": "臺北市", 
    "latitude": "25.028648800000003", 
    "longitude": "121.5653883", 
    "name": "陳韻瑜", 
    "phone": "0925-593-748", 
    "userid": "U055b964c76ccb3396f60e171301ae71b"
  }, 
  "市立信義國小": {
    "YN": 0, 
    "address": "110台北市信義區松勤街60號", 
    "county": "臺北市", 
    "latitude": "25.0315708", 
    "longitude": "121.5609923", 
    "name": "許思穎", 
    "phone": "0981-004-431", 
    "userid": "U783eeb0324231506ab62f502f183b4f2"
  }, 
  "市立光復國小": {
    "YN": 0, 
    "address": "110台北市信義區光復南路271號", 
    "county": "臺北市", 
    "latitude": "25.040627800000003", 
    "longitude": "121.5557733", 
    "name": "王念仰", 
    "phone": "0902-056-590", 
    "userid": "Ue011421c0ecc7f8289d60080c10b1b74"
  }, 
  "市立博愛國小": {
    "YN": 0, 
    "address": "110台北市信義區松仁路95巷20號", 
    "county": "臺北市", 
    "latitude": "25.0363668", 
    "longitude": "121.5682563", 
    "name": "楊威廷", 
    "phone": "0922-125-712", 
    "userid": "U8661e5cf165351f313c8201309ee3f3b"
  }, 
  "市立吳興國小": {
    "YN": 0, 
    "address": "110台北市信義區松仁路226號", 
    "county": "臺北市", 
    "latitude": "25.0257668", 
    "longitude": "121.5664183", 
    "name": "費木邦", 
    "phone": "0921-707-449", 
    "userid": "Uaf44c9857b64633dd6273411ef3b8691"
  }, 
  "市立和平高中": {
    "YN": 0, 
    "address": "106台北市大安區臥龍街100號", 
    "county": "臺北市", 
    "latitude": "25.0196318", 
    "longitude": "121.54695929999998", 
    "name": "張凱生", 
    "phone": "0918-073-283", 
    "userid": "Ue2c538be892bc4bc51a1208e989215f3"
  }, 
  "市立大安國中": {
    "YN": 0, 
    "address": "106台北市大安區大安路二段63號", 
    "county": "臺北市", 
    "latitude": "25.030849800000002", 
    "longitude": "121.54398130000001", 
    "name": "陳肇維", 
    "phone": "0963-867-236", 
    "userid": "U8a7a9007cb9b86ca1ccf2eaca332a3d5"
  }, 
  "市立大安國小": {
    "YN": 0, 
    "address": "106台北市大安區臥龍街129號", 
    "county": "臺北市", 
    "latitude": "25.020016899999998", 
    "longitude": "121.54690249999999", 
    "name": "陳昆芸", 
    "phone": "0930-821-502", 
    "userid": "U0ffd6168f987fd475d8f09391dca9b95"
  }, 
  "市立大安高工": {
    "YN": 0, 
    "address": "106台北市大安區復興南路二段52號", 
    "county": "臺北市", 
    "latitude": "25.0320207", 
    "longitude": "121.5410453", 
    "name": "陳彥君", 
    "phone": "0902-762-733", 
    "userid": "Ued257143d00d1fd8b23d99aa8fa56949"
  }, 
  "市立幸安國小": {
    "YN": 0, 
    "address": "10653台北市大安區仁愛路三段22號", 
    "county": "臺北市", 
    "latitude": "25.0375848", 
    "longitude": "121.5326773", 
    "name": "劉冠杰", 
    "phone": "0992-838-353", 
    "userid": "Uc456d81fab4e5e115c9c801e6edcd90f"
  }, 
  "市立建安國小": {
    "YN": 0, 
    "address": "10667台北市大安區大安路二段99號", 
    "county": "臺北市", 
    "latitude": "25.0293582", 
    "longitude": "121.54403889999999", 
    "name": "黃靖昇", 
    "phone": "0982-205-680", 
    "userid": "U720517f627dc3e35388b2d171cdab5fd"
  }, 
  "市立懷生國中": {
    "YN": 0, 
    "address": "106台北市大安區忠孝東路3段248巷30號", 
    "county": "臺北市", 
    "latitude": "25.0403839", 
    "longitude": "121.53904750000001", 
    "name": "林靜松", 
    "phone": "0974-656-397", 
    "userid": "U549dd60e778885ed1560d0ff8fcea3b3"
  }, 
  "市立敦化國中": {
    "YN": 0, 
    "address": "105台北市松山區南京東路三段300號", 
    "county": "臺北市", 
    "latitude": "25.051499800000002", 
    "longitude": "121.5444993", 
    "name": "蔣侑倫", 
    "phone": "0920-140-563", 
    "userid": "U567431dfadb383c8bab9d8fe42c951ed"
  }, 
  "市立敦化國小": {
    "YN": 0, 
    "address": "105台北市松山區敦化北路2號", 
    "county": "臺北市", 
    "latitude": "25.049157100000002", 
    "longitude": "121.5459152", 
    "name": "沈建霖", 
    "phone": "0926-181-168", 
    "userid": "U69c1de68aae8e4004091f30659cbcb1d"
  }, 
  "市立松山國小": {
    "YN": 0, 
    "address": "105台北市松山區八德路四段746號", 
    "county": "臺北市", 
    "latitude": "25.0502924", 
    "longitude": "121.5758014", 
    "name": "黃致易", 
    "phone": "0955-130-243", 
    "userid": "U4752785cf1dee9ea76a2ec4b733288b6"
  }, 
  "市立松山家商": {
    "YN": 0, 
    "address": "110台北市信義區松山路655號", 
    "county": "臺北市", 
    "latitude": "25.0350546", 
    "longitude": "121.5784246", 
    "name": "羅宜君", 
    "phone": "0983-599-106", 
    "userid": "Udf0825063dfa29078848aa0dfafb9008"
  }, 
  "市立松山工農": {
    "YN": 0, 
    "address": "110台北市信義區忠孝東路五段236巷15號", 
    "county": "臺北市", 
    "latitude": "25.0398103", 
    "longitude": "121.5700017", 
    "name": "謝玉憲", 
    "phone": "0971-589-055", 
    "userid": "U20bc76c475b223189f7ac09c96eddbf0"
  }, 
  "市立松山高中": {
    "YN": 0, 
    "address": "110台北市信義區基隆路一段156號", 
    "county": "臺北市", 
    "latitude": "25.0436687", 
    "longitude": "121.56338640000001", 
    "name": "歐陽雅婷", 
    "phone": "0919-850-467", 
    "userid": "U38ea1897cd37b1a4ae14a9e92608c52d"
  }, 
  "市立民族國中": {
    "YN": 0, 
    "address": "106台北市大安區羅斯福路四段113巷13號", 
    "county": "臺北市", 
    "latitude": "25.011226500000003", 
    "longitude": "121.5366513", 
    "name": "陳宥生", 
    "phone": "0963-192-348", 
    "userid": "U2c00fd8d285744b0f2a0f1c74133ca7e"
  }, 
  "市立民權國小": {
    "YN": 0, 
    "address": "105台北市松山區民權東路四段200號", 
    "county": "臺北市", 
    "latitude": "25.0624258", 
    "longitude": "121.55990829999999", 
    "name": "張竹清", 
    "phone": "0967-653-701", 
    "userid": "U7a56e2217719c0e6ed1d21a5bd6d64a6"
  }, 
  "市立民生國中": {
    "YN": 0, 
    "address": "105台北市松山區新東街30巷1號", 
    "county": "臺北市", 
    "latitude": "25.0597841", 
    "longitude": "121.56452720000001", 
    "name": "吳政昌", 
    "phone": "0942-258-203", 
    "userid": "U3b4cc1a706b4d2bd16d65039950df8b6"
  }, 
  "市立民生國小": {
    "YN": 0, 
    "address": "105台北市松山區敦化北路199巷18號", 
    "county": "臺北市", 
    "latitude": "25.0564368", 
    "longitude": "121.5500723", 
    "name": "明鎮新", 
    "phone": "0980-276-089", 
    "userid": "U0158f7f9cde942f8aac87d3b893ed02a"
  }, 
  "市立永吉國中": {
    "YN": 0, 
    "address": "110台北市信義區松隆路161號", 
    "county": "臺北市", 
    "latitude": "25.048254", 
    "longitude": "121.571721", 
    "name": "蔡建輝", 
    "phone": "0942-733-624", 
    "userid": "U5f4f600a97edf0e445c04611cccf4551"
  }, 
  "市立永吉國小": {
    "YN": 0, 
    "address": "110台北市信義區松山路287巷5號", 
    "county": "臺北市", 
    "latitude": "25.043013600000002", 
    "longitude": "121.5776966", 
    "name": "劉雅宜", 
    "phone": "0915-625-786", 
    "userid": "U8fb37f4eeeb394cf68f3b82af574bfca"
  }, 
  "市立永春國小": {
    "YN": 0, 
    "address": "110台北市信義區松山路225巷48號", 
    "county": "臺北市", 
    "latitude": "25.044446899999997", 
    "longitude": "121.57698870000002", 
    "name": "井珮珊", 
    "phone": "0971-290-960", 
    "userid": "U1d4b6fca1a397010160d06f5cc4e305f"
  }, 
  "市立永春高中": {
    "YN": 0, 
    "address": "110台北市信義區松山路654號", 
    "county": "臺北市", 
    "latitude": "25.0324508", 
    "longitude": "121.57593929999999", 
    "name": "林文娥", 
    "phone": "0993-613-099", 
    "userid": "U07ed56be8eb47d66cc3273d7f605e401"
  }, 
  "市立?公國中": {
    "YN": 0, 
    "address": "110台北市信義區福德街221巷15號", 
    "county": "臺北市", 
    "latitude": "25.037144899999998", 
    "longitude": "121.5832838", 
    "name": "林依香", 
    "phone": "0972-590-283", 
    "userid": "U0d5a6f15f1a65f673abcd08fd91855b3"
  }, 
  "市立福德國小": {
    "YN": 0, 
    "address": "110台北市信義區福德街253號", 
    "county": "臺北市", 
    "latitude": "25.0389137", 
    "longitude": "121.58448429999999", 
    "name": "張怡傑", 
    "phone": "0948-826-121", 
    "userid": "U7d4c988ff1d4b7790a64febc5cd2a818"
  }, 
  "市立興雅國中": {
    "YN": 0, 
    "address": "110台北市信義區松德路168巷15號", 
    "county": "臺北市", 
    "latitude": "25.036324800000003", 
    "longitude": "121.5701813", 
    "name": "張蕙城", 
    "phone": "0920-616-860", 
    "userid": "U6af17037a749ce535bc8a8e3c5afded7"
  }, 
  "市立興雅國小": {
    "YN": 0, 
    "address": "110台北市信義區基隆路一段83巷9號", 
    "county": "臺北市", 
    "latitude": "25.041548300000002", 
    "longitude": "121.56676759999999", 
    "name": "陳法花", 
    "phone": "0942-493-754", 
    "userid": "Ue6977e1e213c0ad6ae3649f7de6f3a82"
  }, 
  "市立芳和國中": {
    "YN": 0, 
    "address": "106台北市大安區臥龍街170號", 
    "county": "臺北市", 
    "latitude": "25.0190398", 
    "longitude": "121.5475623", 
    "name": "陳宛昆", 
    "phone": "0975-516-957", 
    "userid": "U85ee58dffff614a130b622ba564d65c5"
  }, 
  "市立西松國小": {
    "YN": 0, 
    "address": "105台北市松山區三民路5號", 
    "county": "臺北市", 
    "latitude": "25.0523358", 
    "longitude": "121.56138429999999", 
    "name": "李建白", 
    "phone": "0963-788-042", 
    "userid": "Uec1f267d76c240385641c4083d7d0526"
  }, 
  "市立西松高中": {
    "YN": 0, 
    "address": "105台北市松山區健康路325巷7號", 
    "county": "臺北市", 
    "latitude": "25.0553602", 
    "longitude": "121.56492469999999", 
    "name": "宋聿年", 
    "phone": "0998-474-028", 
    "userid": "Uf9726477264c58fd1f0e41f08037d5c8"
  }, 
  "市立金華國中": {
    "YN": 0, 
    "address": "106台北市大安區新生南路二段32號", 
    "county": "臺北市", 
    "latitude": "25.031206", 
    "longitude": "121.53098929999999", 
    "name": "鄭昶歡", 
    "phone": "0946-828-233", 
    "userid": "Ud6de42c31fd10748b164d8b812ef029a"
  }, 
  "市立龍安國小": {
    "YN": 0, 
    "address": "106台北市大安區新生南路三段33號", 
    "county": "臺北市", 
    "latitude": "25.0239244", 
    "longitude": "121.53273870000001", 
    "name": "劉易", 
    "phone": "0900-560-917", 
    "userid": "Ubb83c9eee074962a4583bc061e968047"
  }, 
  "私立新民小學": {
    "YN": 0, 
    "address": "10645台北市大安區辛亥路一段113號", 
    "county": "臺北市", 
    "latitude": "25.0222387", 
    "longitude": "121.529498", 
    "name": "黃貴啟", 
    "phone": "0964-248-450", 
    "userid": "Uf5191d44337687e5b5f64301411b94db"
  }, 
  "臺北市立大學": {
    "YN": 0, 
    "address": "100台北市中正區愛國西路1號", 
    "county": "臺北市", 
    "latitude": "25.035540100000002", 
    "longitude": "121.5113529", 
    "name": "蘇嘉偉", 
    "phone": "0956-073-917", 
    "userid": "Ucdd5e00f2a87b92eb46ae5d443a567f1"
  }
}